loadreviews/CheckFotCLP/HOLD/2013:042:B-FEB1113B/History/ECLIPSE.txt

Satellite-Chandra:  Eclipse Times                2013/036 Epoch    
												       
												       
Start Time (UTCJFOUR)    Stop Time (UTCJFOUR)    Duration (sec)    Current Condition    Obstruction    Entry Timer    Type
---------------------    --------------------    --------------    -----------------    -----------    -----------    ----
 048/2013 19:48:48.59    048/2013 19:53:50.98           302.389    Penumbra             Earth          1873           NORMAL
 048/2013 19:53:50.98    048/2013 20:14:48.86          1257.882    Umbra                Earth      
 048/2013 20:14:48.86    048/2013 20:19:01.38           252.524    Penumbra             Earth      

 051/2013 11:08:19.21    051/2013 11:10:57.11           157.898    Penumbra             Earth          1171           NORMAL
 051/2013 11:10:57.11    051/2013 11:57:53.91          2816.802    Umbra                Earth      
 051/2013 11:57:53.91    051/2013 11:59:44.49           110.580    Penumbra             Earth      
 
 054/2013 02:33:42.27    054/2013 02:35:48.96           126.685    Penumbra             Earth          1171           NORMAL
 054/2013 02:35:48.96    054/2013 03:33:08.48          3439.519    Umbra                Earth      
 054/2013 03:33:08.48    054/2013 03:34:30.27            81.796    Penumbra             Earth      

 056/2013 18:01:21.14    056/2013 18:03:12.39           111.252    Penumbra             Earth          1171           NORMAL
 056/2013 18:03:12.39    056/2013 19:05:03.88          3711.495    Umbra                Earth      
 056/2013 19:05:03.88    056/2013 19:06:12.63            68.745    Penumbra             Earth      

 059/2013 09:31:24.73    059/2013 09:33:05.58           100.857    Penumbra             Earth          1171           NORMAL
 059/2013 09:33:05.58    059/2013 10:36:12.61          3787.032    Umbra                Earth      
 059/2013 10:36:12.61    059/2013 10:37:13.31            60.699    Penumbra             Earth      

 062/2013 01:04:20.13    062/2013 01:05:53.47            93.339    Penumbra             Earth          1171           NORMAL
 062/2013 01:05:53.47    062/2013 02:08:05.85          3732.378    Umbra                Earth      
 062/2013 02:08:05.85    062/2013 02:09:01.27            55.421    Penumbra             Earth      

 064/2013 16:39:12.37    064/2013 16:40:40.80            88.430    Penumbra             Earth          1171           NORMAL
 064/2013 16:40:40.80    064/2013 17:40:20.91          3580.111    Umbra                Earth      
 064/2013 17:40:20.91    064/2013 17:41:13.51            52.601    Penumbra             Earth      

 067/2013 08:14:17.87    067/2013 08:15:43.69            85.821    Penumbra             Earth          1171           NORMAL
 067/2013 08:15:43.69    067/2013 09:11:36.82          3353.129    Umbra                Earth      
 067/2013 09:11:36.82    067/2013 09:12:28.77            51.947    Penumbra             Earth      

 069/2013 23:48:25.71    069/2013 23:49:50.54            84.825    Penumbra             Earth          1171           NORMAL
 069/2013 23:49:50.54    070/2013 00:41:01.15          3070.616    Umbra                Earth      
 070/2013 00:41:01.15    070/2013 00:41:53.98            52.825    Penumbra             Earth      

 072/2013 15:22:00.74    072/2013 15:23:25.60            84.864    Penumbra             Earth          1171           NORMAL
 072/2013 15:23:25.60    072/2013 16:09:09.19          2743.589    Umbra                Earth      
 072/2013 16:09:09.19    072/2013 16:10:03.89            54.697    Penumbra             Earth      

 075/2013 06:56:24.63    075/2013 06:57:51.19            86.555    Penumbra             Earth          1171           NORMAL
 075/2013 06:57:51.19    075/2013 07:37:17.12          2365.928    Umbra                Earth      
 075/2013 07:37:17.12    075/2013 07:38:15.30            58.178    Penumbra             Earth      

 077/2013 22:32:10.55    077/2013 22:33:43.44            92.898    Penumbra             Earth          1171           NORMAL
 077/2013 22:33:43.44    077/2013 23:05:34.98          1911.534    Umbra                Earth      
 077/2013 23:05:34.98    077/2013 23:06:41.19            66.207    Penumbra             Earth      

 080/2013 14:08:37.52    080/2013 14:10:30.16           112.647    Penumbra             Earth          1171           NORMAL
 080/2013 14:10:30.16    080/2013 14:32:42.18          1332.020    Umbra                Earth      
 080/2013 14:32:42.18    080/2013 14:34:09.70            87.522    Penumbra             Earth      

 083/2013 05:45:29.23    083/2013 05:49:22.64           233.411    Penumbra             Earth          1405           NSHORT
 083/2013 05:49:22.64    083/2013 05:55:28.65           366.011    Umbra                Earth      
 083/2013 05:55:28.65    083/2013 05:58:58.42           209.769    Penumbra             Earth      

 202/2013 07:29:25.87    202/2013 07:30:38.35            72.475    Penumbra             Earth          1171           NORMAL
 202/2013 07:30:38.35    202/2013 07:37:13.66           395.312    Umbra                Earth      
 202/2013 07:37:13.66    202/2013 07:38:33.52            79.865    Penumbra             Earth      

 204/2013 22:58:54.69    204/2013 22:59:39.65            44.954    Penumbra             Earth          1171           NORMAL
 204/2013 22:59:39.65    204/2013 23:11:57.53           737.879    Umbra                Earth      
 204/2013 23:11:57.53    204/2013 23:12:50.33            52.800    Penumbra             Earth      

 207/2013 14:27:11.60    207/2013 14:27:47.91            36.303    Penumbra             Earth          1171           NORMAL
 207/2013 14:27:47.91    207/2013 14:44:03.05           975.147    Umbra                Earth      
 207/2013 14:44:03.05    207/2013 14:44:47.66            44.606    Penumbra             Earth      

 210/2013 05:54:37.16    210/2013 05:55:08.20            31.041    Penumbra             Earth          1171           NORMAL
 210/2013 05:55:08.20    210/2013 06:14:59.52          1191.316    Umbra                Earth      
 210/2013 06:14:59.52    210/2013 06:15:39.33            39.809    Penumbra             Earth      

 212/2013 21:22:41.52    212/2013 21:23:09.04            27.516    Penumbra             Earth          1171           NORMAL
 212/2013 21:23:09.04    212/2013 21:46:22.39          1393.352    Umbra                Earth      
 212/2013 21:46:22.39    212/2013 21:46:59.14            36.748    Penumbra             Earth      

 215/2013 12:51:50.73    215/2013 12:52:16.17            25.447    Penumbra             Earth          1171           NORMAL
 215/2013 12:52:16.17    215/2013 13:18:30.72          1574.548    Umbra                Earth      
 215/2013 13:18:30.72    215/2013 13:19:05.89            35.171    Penumbra             Earth      

 218/2013 04:21:03.02    218/2013 04:21:27.42            24.396    Penumbra             Earth          1171           NORMAL
 218/2013 04:21:27.42    218/2013 04:50:21.35          1733.932    Umbra                Earth      
 218/2013 04:50:21.35    218/2013 04:50:55.99            34.637    Penumbra             Earth          

 220/2013 19:49:25.68    220/2013 19:49:49.42            23.731    Penumbra             Earth          1171           NORMAL
 220/2013 19:49:49.42    220/2013 20:21:06.01          1876.597    Umbra                Earth      
 220/2013 20:21:06.01    220/2013 20:21:40.51            34.501    Penumbra             Earth          

 223/2013 11:17:36.16    223/2013 11:17:59.28            23.126    Penumbra             Earth          1171           NORMAL
 223/2013 11:17:59.28    223/2013 11:51:25.79          2006.505    Umbra                Earth      
 223/2013 11:51:25.79    223/2013 11:52:00.21            34.420    Penumbra             Earth          

 226/2013 02:46:46.15    226/2013 02:47:08.81            22.666    Penumbra             Earth          1171           NORMAL
 226/2013 02:47:08.81    226/2013 03:22:32.69          2123.877    Umbra                Earth      
 226/2013 03:22:32.69    226/2013 03:23:07.17            34.484    Penumbra             Earth          

 228/2013 18:17:24.42    228/2013 18:17:47.01            22.596    Penumbra             Earth          1171           NORMAL
 228/2013 18:17:47.01    228/2013 18:54:54.79          2227.780    Umbra                Earth      
 228/2013 18:54:54.79    228/2013 18:55:29.75            34.961    Penumbra             Earth          

 231/2013 09:48:32.40    231/2013 09:48:55.44            23.046    Penumbra             Earth          1171	      NORMAL
 231/2013 09:48:55.44    231/2013 10:27:32.22          2316.779    Umbra                Earth
 231/2013 10:27:32.22    231/2013 10:28:08.22            36.001    Penumbra             Earth       

 234/2013 01:18:24.38    234/2013 01:18:48.25            23.870    Penumbra             Earth          1171	      NORMAL
 234/2013 01:18:48.25    234/2013 01:58:34.78          2386.533    Umbra                Earth
 234/2013 01:58:34.78    234/2013 01:59:12.23            37.451    Penumbra             Earth       

 236/2013 16:46:50.19    236/2013 16:47:15.00            24.815    Penumbra             Earth	       1171	      NORMAL
 236/2013 16:47:15.00    236/2013 17:27:44.85          2429.847    Umbra                Earth
 236/2013 17:27:44.85    236/2013 17:28:23.89            39.035    Penumbra             Earth       

 239/2013 08:15:25.86    239/2013 08:15:51.83            25.962    Penumbra             Earth	       1171	      NORMAL
 239/2013 08:15:51.83    239/2013 08:56:32.08          2440.258    Umbra                Earth
 239/2013 08:56:32.08    239/2013 08:57:12.90            40.816    Penumbra             Earth       

 241/2013 23:45:14.15    241/2013 23:45:41.90            27.753    Penumbra             Earth	       1171	      NORMAL
 241/2013 23:45:41.90    242/2013 00:25:54.93          2413.025    Umbra                Earth
 242/2013 00:25:54.93    242/2013 00:26:38.19            43.263    Penumbra             Earth       

 244/2013 15:15:43.16    244/2013 15:16:13.77            30.616    Penumbra             Earth	       1171	      NORMAL
 244/2013 15:16:13.77    244/2013 15:55:16.31          2342.533    Umbra                Earth
 244/2013 15:55:16.31    244/2013 15:56:03.13            46.828    Penumbra             Earth       

 247/2013 06:45:47.33    247/2013 06:46:22.11            34.784    Penumbra             Earth	       1171	      NORMAL
 247/2013 06:46:22.11    247/2013 07:23:19.94          2217.832    Umbra                Earth
 247/2013 07:23:19.94    247/2013 07:24:11.69            51.743    Penumbra             Earth       

 249/2013 22:15:36.98    249/2013 22:16:17.85            40.873    Penumbra             Earth	       1171	      NORMAL
 249/2013 22:16:17.85    249/2013 22:49:54.17          2016.312    Umbra                Earth
 249/2013 22:49:54.17    249/2013 22:50:52.75            58.588    Penumbra             Earth       

 252/2013 13:46:46.51    252/2013 13:47:38.33            51.824    Penumbra             Earth	       1171	      NORMAL
 252/2013 13:47:38.33    252/2013 14:15:48.00          1689.671    Umbra                Earth
 252/2013 14:15:48.00    252/2013 14:16:58.29            70.283    Penumbra             Earth       

 255/2013 05:21:01.53    255/2013 05:22:25.48            83.946    Penumbra             Earth	       1171	      NORMAL
 255/2013 05:22:25.48    255/2013 05:40:39.81          1094.337    Umbra                Earth
 255/2013 05:40:39.81    255/2013 05:42:22.98           103.165    Penumbra             Earth       

												     

       

												     

       

												     

       

												     

       

												     

       

												     

												     

												     

												     

												     

												     

												     

												     

												     

												     

												     



												     



												     



												     



												     