loadreviews/CheckFotCLP/PASS/History/ECLIPSE.txt

Satellite-Chandra:  Eclipse Times								 2010/116 Epoch 


Start Time (UTCJFOUR)    Stop Time (UTCJFOUR)    Duration (sec)    Current Condition    Obstruction	Entry Timer	Type
---------------------    --------------------    --------------    -----------------    -----------	-----------	----
 129/2010 08:23:50.59    129/2010 08:30:21.33           390.743    Penumbra             Earth      	1873		NORMAL

 131/2010 23:41:43.30    131/2010 23:43:33.76           110.459    Penumbra             Earth      	1171		NORMAL
 131/2010 23:43:33.76    132/2010 00:08:08.18          1474.415    Umbra                Earth      
 132/2010 00:08:08.18    132/2010 00:09:39.19            91.007    Penumbra             Earth      

 134/2010 15:05:33.90    134/2010 15:06:54.94            81.048    Penumbra             Earth      	1171		NORMAL
 134/2010 15:06:54.94    134/2010 15:40:55.28          2040.334    Umbra                Earth      
 134/2010 15:40:55.28    134/2010 15:41:57.68            62.399    Penumbra             Earth      

 137/2010 06:32:11.73    137/2010 06:33:19.56            67.834    Penumbra             Earth      	1171		NORMAL
 137/2010 06:33:19.56    137/2010 07:12:46.20          2366.632    Umbra                Earth      
 137/2010 07:12:46.20    137/2010 07:13:36.19            49.990    Penumbra             Earth      

 139/2010 22:00:57.31    139/2010 22:01:57.39            60.086    Penumbra             Earth      	1171		NORMAL
 139/2010 22:01:57.39    139/2010 22:44:43.77          2566.374    Umbra                Earth      
 139/2010 22:44:43.77    139/2010 22:45:26.76            42.996    Penumbra             Earth      

 142/2010 13:29:04.43    142/2010 13:30:00.02            55.589    Penumbra             Earth      	1171		NORMAL
 142/2010 13:30:00.02    142/2010 14:14:28.63          2668.613    Umbra                Earth      
 142/2010 14:14:28.63    142/2010 14:15:07.83            39.198    Penumbra             Earth      

 145/2010 04:57:22.00    145/2010 04:58:14.53            52.529    Penumbra             Earth      	1171		NORMAL
 145/2010 04:58:14.53    145/2010 05:43:08.56          2694.026    Umbra                Earth      
 145/2010 05:43:08.56    145/2010 05:43:45.40            36.838    Penumbra             Earth      

 147/2010 20:27:34.73    147/2010 20:28:24.87            50.142    Penumbra             Earth      	1171		NORMAL
 147/2010 20:28:24.87    147/2010 21:12:48.80          2663.930    Umbra                Earth      
 147/2010 21:12:48.80    147/2010 21:13:23.94            35.134    Penumbra             Earth      

 150/2010 11:59:36.27    150/2010 12:00:24.70            48.425    Penumbra             Earth      	1171		NORMAL
 150/2010 12:00:24.70    150/2010 12:43:36.20          2591.504    Umbra                Earth      
 150/2010 12:43:36.20    150/2010 12:44:10.27            34.071    Penumbra             Earth      	

 153/2010 03:32:22.97    153/2010 03:33:10.48            47.509    Penumbra             Earth      	1171		NORMAL
 153/2010 03:33:10.48    153/2010 04:14:33.27          2482.791    Umbra                Earth      
 153/2010 04:14:33.27    153/2010 04:15:07.05            33.775    Penumbra             Earth      

 155/2010 19:04:57.77    155/2010 19:05:45.23            47.460    Penumbra             Earth      	1171		NORMAL
 155/2010 19:05:45.23    155/2010 19:44:45.34          2340.113    Umbra                Earth      
 155/2010 19:44:45.34    155/2010 19:45:19.66            34.313    Penumbra             Earth      

 158/2010 10:36:46.97    158/2010 10:37:35.28            48.308    Penumbra             Earth      	1171		NORMAL
 158/2010 10:37:35.28    158/2010 11:13:39.90          2164.616    Umbra                Earth      
 158/2010 11:13:39.90    158/2010 11:14:15.63            35.732    Penumbra             Earth      

 161/2010 02:07:49.49    161/2010 02:08:39.51            50.013    Penumbra             Earth      	1171		NORMAL
 161/2010 02:08:39.51    161/2010 02:41:17.80          1958.296    Umbra                Earth      
 161/2010 02:41:17.80    161/2010 02:41:55.80            37.997    Penumbra             Earth      

 163/2010 17:39:10.47    163/2010 17:40:03.04            52.567    Penumbra             Earth      	1171		NORMAL
 163/2010 17:40:03.04    163/2010 18:08:44.47          1721.433    Umbra                Earth      
 163/2010 18:08:44.47    163/2010 18:09:25.59            41.121    Penumbra             Earth      

 166/2010 09:12:26.65    166/2010 09:13:24.24            57.592    Penumbra             Earth      	1171		NORMAL
 166/2010 09:13:24.24    166/2010 09:37:15.02          1430.778    Umbra                Earth      
 166/2010 09:37:15.02    166/2010 09:38:01.73            46.709    Penumbra             Earth      

 169/2010 00:45:42.31    169/2010 00:46:53.79            71.480    Penumbra             Earth      	1171		NORMAL
 169/2010 00:46:53.79    169/2010 01:04:10.63          1036.838    Umbra                Earth      
 169/2010 01:04:10.63    169/2010 01:05:11.74            61.116    Penumbra             Earth      

 171/2010 16:18:55.03    171/2010 16:21:10.01           134.986    Penumbra             Earth      	1171		NORMAL
 171/2010 16:21:10.01    171/2010 16:27:54.00           403.991    Umbra                Earth      
 171/2010 16:27:54.00    171/2010 16:29:59.13           125.125    Penumbra             Earth      

 306/2010 15:05:33.21    306/2010 15:08:21.28           168.065    Penumbra             Earth      	1171		NORMAL
 306/2010 15:08:21.28    306/2010 15:25:49.20          1047.925    Umbra                Earth      
 306/2010 15:25:49.20    306/2010 15:29:05.72           196.517    Penumbra             Earth      

 309/2010 06:30:00.91    309/2010 06:31:44.64           103.735    Penumbra             Earth      	1171		NORMAL
 309/2010 06:31:44.64    309/2010 07:04:32.82          1968.178    Umbra                Earth      
 309/2010 07:04:32.82    309/2010 07:06:46.73           133.906    Penumbra             Earth      

 311/2010 21:56:46.05    311/2010 21:58:10.36            84.307    Penumbra             Earth      	1171		NORMAL
 311/2010 21:58:10.36    311/2010 22:41:33.21          2602.848    Umbra                Earth      
 311/2010 22:41:33.21    311/2010 22:43:29.45           116.239    Penumbra             Earth      

 314/2010 13:25:44.41    314/2010 13:26:59.56            75.154    Penumbra             Earth      	1171		NORMAL
 314/2010 13:26:59.56    314/2010 14:18:56.06          3116.495    Umbra                Earth      
 314/2010 14:18:56.06    314/2010 14:20:44.95           108.895    Penumbra             Earth      

 317/2010 04:56:14.23    317/2010 04:57:25.65            71.423    Penumbra             Earth      	1171		NORMAL
 317/2010 04:57:25.65    317/2010 05:56:11.53          3525.877    Umbra                Earth      
 317/2010 05:56:11.53    317/2010 05:57:58.58           107.055    Penumbra             Earth      

 319/2010 20:27:28.84    319/2010 20:28:40.34            71.494    Penumbra             Earth      	1171		NORMAL
 319/2010 20:28:40.34    319/2010 21:32:27.74          3827.406    Umbra                Earth      
 319/2010 21:32:27.74    319/2010 21:34:16.88           109.137    Penumbra             Earth      

 322/2010 11:58:48.49    322/2010 12:00:03.31            74.818    Penumbra             Earth      	1171		NORMAL
 322/2010 12:00:03.31    322/2010 13:06:50.92          4007.609    Umbra                Earth      
 322/2010 13:06:50.92    322/2010 13:08:45.52           114.604    Penumbra             Earth      

 325/2010 03:29:49.95    325/2010 03:31:11.42            81.471    Penumbra             Earth      	1171		NORMAL
 325/2010 03:31:11.42    325/2010 04:38:32.15          4040.731    Umbra                Earth      
 325/2010 04:38:32.15    325/2010 04:40:35.66           123.511    Penumbra             Earth      

 327/2010 19:01:14.04    327/2010 19:02:46.87            92.827    Penumbra             Earth      	1171		NORMAL
 327/2010 19:02:46.87    327/2010 20:07:19.70          3872.831    Umbra                Earth      
 327/2010 20:07:19.70    327/2010 20:09:36.90           137.196    Penumbra             Earth      

 330/2010 10:35:28.13    330/2010 10:37:24.94           116.807    Penumbra             Earth      	1171		NORMAL
 330/2010 10:37:24.94    330/2010 11:33:28.94          3364.007    Umbra                Earth      
 330/2010 11:33:28.94    330/2010 11:36:12.49           163.548    Penumbra             Earth      

 333/2010 02:14:40.30    333/2010 02:17:59.88           199.574    Penumbra             Earth      	1171		NORMAL
 333/2010 02:17:59.88    333/2010 02:53:35.29          2135.417    Umbra                Earth      
 333/2010 02:53:35.29    333/2010 02:57:44.10           248.811    Penumbra             Earth      
